[
  {
    "esp_id": 1,
    "esp_bloque_id": 1,
    "esp_tipo_espacio_id": 1,
    "esp_nombre": "Espacio A",
    "esp_geolocalizacion": {
      "type": "Point",
      "coordinates": [-75.343, 39.984]
    },
    "esp_coordenadas": {
      "latitude": 39.984,
      "longitude": -75.343
    },
    "esp_descripcion": "Oficina principal del bloque A",
    "esp_estado": 1
  },
  {
    "esp_id": 2,
    "esp_bloque_id": 2,
    "esp_tipo_espacio_id": 2,
    "esp_nombre": "Espacio B",
    "esp_geolocalizacion": {
      "type": "Point",
      "coordinates": [-74.343, 38.984]
    },
    "esp_coordenadas": {
      "latitude": 38.984,
      "longitude": -74.343
    },
    "esp_descripcion": "Sala de reuniones del bloque B",
    "esp_estado": 1
  },
  {
    "esp_id": 3,
    "esp_bloque_id": 3,
    "esp_tipo_espacio_id": 3,
    "esp_nombre": "Espacio C",
    "esp_geolocalizacion": {
      "type": "Point",
      "coordinates": [-73.343, 37.984]
    },
    "esp_coordenadas": {
      "latitude": 37.984,
      "longitude": -73.343
    },
    "esp_descripcion": "Laboratorio del bloque C",
    "esp_estado": 1
  },
  {
    "esp_id": 4,
    "esp_bloque_id": 4,
    "esp_tipo_espacio_id": 4,
    "esp_nombre": "Espacio D",
    "esp_geolocalizacion": {
      "type": "Point",
      "coordinates": [-72.343, 36.984]
    },
    "esp_coordenadas": {
      "latitude": 36.984,
      "longitude": -72.343
    },
    "esp_descripcion": "Almacén del bloque D",
    "esp_estado": 1
  },
  {
    "esp_id": 5,
    "esp_bloque_id": 5,
    "esp_tipo_espacio_id": 5,
    "esp_nombre": "Espacio E",
    "esp_geolocalizacion": {
      "type": "Point",
      "coordinates": [-71.343, 35.984]
    },
    "esp_coordenadas": {
      "latitude": 35.984,
      "longitude": -71.343
    },
    "esp_descripcion": "Cafetería del bloque E",
    "esp_estado": 1
  },
  {
    "esp_id": 6,
    "esp_bloque_id": 6,
    "esp_tipo_espacio_id": 6,
    "esp_nombre": "Espacio F",
    "esp_geolocalizacion": {
      "type": "Point",
      "coordinates": [-70.343, 34.984]
    },
    "esp_coordenadas": {
      "latitude": 34.984,
      "longitude": -70.343
    },
    "esp_descripcion": "Aula de capacitación del bloque F",
    "esp_estado": 1
  },
  {
    "esp_id": 7,
    "esp_bloque_id": 7,
    "esp_tipo_espacio_id": 7,
    "esp_nombre": "Espacio G",
    "esp_geolocalizacion": {
      "type": "Point",
      "coordinates": [-69.343, 33.984]
    },
    "esp_coordenadas": {
      "latitude": 33.984,
      "longitude": -69.343
    },
    "esp_descripcion": "Sala de conferencias del bloque G",
    "esp_estado": 1
  },
  {
    "esp_id": 8,
    "esp_bloque_id": 8,
    "esp_tipo_espacio_id": 8,
    "esp_nombre": "Espacio H",
    "esp_geolocalizacion": {
      "type": "Point",
      "coordinates": [-68.343, 32.984]
    },
    "esp_coordenadas": {
      "latitude": 32.984,
      "longitude": -68.343
    },
    "esp_descripcion": "Zona de descanso del bloque H",
    "esp_estado": 1
  },
  {
    "esp_id": 9,
    "esp_bloque_id": 9,
    "esp_tipo_espacio_id": 9,
    "esp_nombre": "Espacio I",
    "esp_geolocalizacion": {
      "type": "Point",
      "coordinates": [-67.343, 31.984]
    },
    "esp_coordenadas": {
      "latitude": 31.984,
      "longitude": -67.343
    },
    "esp_descripcion": "Gimnasio del bloque I",
    "esp_estado": 1
  },
  {
    "esp_id": 10,
    "esp_bloque_id": 10,
    "esp_tipo_espacio_id": 10,
    "esp_nombre": "Espacio J",
    "esp_geolocalizacion": {
      "type": "Point",
      "coordinates": [-66.343, 30.984]
    },
    "esp_coordenadas": {
      "latitude": 30.984,
      "longitude": -66.343
    },
    "esp_descripcion": "Sala de atención al cliente del bloque J",
    "esp_estado": 1
  },
  {
    "esp_id": 11,
    "esp_bloque_id": 11,
    "esp_tipo_espacio_id": 11,
    "esp_nombre": "Espacio K",
    "esp_geolocalizacion": {
      "type": "Point",
      "coordinates": [-65.343, 29.984]
    },
    "esp_coordenadas": {
      "latitude": 29.984,
      "longitude": -65.343
    },
    "esp_descripcion": "Taller del bloque K",
    "esp_estado": 1
  },
  {
    "esp_id": 12,
    "esp_bloque_id": 12,
    "esp_tipo_espacio_id": 12,
    "esp_nombre": "Espacio L",
    "esp_geolocalizacion": {
      "type": "Point",
      "coordinates": [-64.343, 28.984]
    },
    "esp_coordenadas": {
      "latitude": 28.984,
      "longitude": -64.343
    },
    "esp_descripcion": "Sala de innovación del bloque L",
    "esp_estado": 1
  },
  {
    "esp_id": 13,
    "esp_bloque_id": 13,
    "esp_tipo_espacio_id": 13,
    "esp_nombre": "Espacio M",
    "esp_geolocalizacion": {
      "type": "Point",
      "coordinates": [-63.343, 27.984]
    },
    "esp_coordenadas": {
      "latitude": 27.984,
      "longitude": -63.343
    },
    "esp_descripcion": "Centro de datos del bloque M",
    "esp_estado": 1
  },
  {
    "esp_id": 14,
    "esp_bloque_id": 14,
    "esp_tipo_espacio_id": 14,
    "esp_nombre": "Espacio N",
    "esp_geolocalizacion": {
      "type": "Point",
      "coordinates": [-62.343, 26.984]
    },
    "esp_coordenadas": {
      "latitude": 26.984,
      "longitude": -62.343
    },
    "esp_descripcion": "Vivienda del bloque N",
    "esp_estado": 1
  },
  {
    "esp_id": 15,
    "esp_bloque_id": 15,
    "esp_tipo_espacio_id": 15,
    "esp_nombre": "Espacio O",
    "esp_geolocalizacion": {
      "type": "Point",
      "coordinates": [-61.343, 25.984]
    },
    "esp_coordenadas": {
      "latitude": 25.984,
      "longitude": -61.343
    },
    "esp_descripcion": "Espacio recreativo del bloque O",
    "esp_estado": 1
  }
]